City_ID,City,Country,Date,Lat,Lng,Max Temp,Humidity,Cloudiness,Wind Speed,Current description
0,Massakory,TD,2021-08-14 16:53:35,12.996,15.7293,84.0,68,99,6.29,overcast clouds
1,Waingapu,ID,2021-08-14 16:53:36,-9.6567,120.2641,76.23,83,29,12.06,scattered clouds
2,Rikitea,PF,2021-08-14 16:53:36,-23.1203,-134.9692,74.57,81,81,16.73,light rain
3,Innoshima,JP,2021-08-14 16:53:36,34.2833,133.1833,74.88,94,100,9.8,heavy intensity rain
4,Pundaguitan,PH,2021-08-14 16:53:37,6.3711,126.1689,82.94,72,96,6.85,overcast clouds
5,Usoke,TZ,2021-08-14 16:53:37,-5.1667,32.35,77.23,26,15,6.08,few clouds
6,Touros,BR,2021-08-14 16:53:37,-5.1989,-35.4608,88.7,52,40,20.87,scattered clouds
7,Atuona,PF,2021-08-14 16:53:38,-9.8,-139.0333,77.81,80,28,17.34,scattered clouds
8,Hualmay,PE,2021-08-14 16:53:38,-11.0964,-77.6139,66.97,69,42,9.86,scattered clouds
9,Thinadhoo,MV,2021-08-14 16:53:39,0.5333,72.9333,82.92,72,54,16.33,broken clouds
10,Havoysund,NO,2021-08-14 16:53:39,70.9963,24.6622,50.88,85,97,9.4,overcast clouds
11,Bethel,US,2021-08-14 16:53:39,41.3712,-73.414,89.58,77,74,7.96,broken clouds
12,Santa Maria Del Oro,MX,2021-08-14 16:53:40,25.9333,-105.3667,76.84,46,19,6.69,few clouds
13,Malinyi,TZ,2021-08-14 16:53:40,-8.9333,36.1333,74.41,58,77,2.01,broken clouds
14,Lagunas,PE,2021-08-14 16:53:40,-5.2269,-75.6753,93.54,43,78,1.23,broken clouds
15,Punta Arenas,CL,2021-08-14 16:49:31,-53.15,-70.9167,39.31,87,90,5.75,overcast clouds
16,Port Elizabeth,ZA,2021-08-14 16:53:41,-33.918,25.5701,59.29,72,0,13.8,clear sky
17,Pevek,RU,2021-08-14 16:53:41,69.7008,170.3133,36.07,97,100,20.78,light rain
18,Alofi,NU,2021-08-14 16:53:41,-19.0595,-169.9187,66.09,100,38,5.75,scattered clouds
19,Souillac,MU,2021-08-14 16:53:42,-20.5167,57.5167,73.78,73,75,12.66,light rain
20,Vaini,TO,2021-08-14 16:53:42,-21.2,-175.2,66.36,77,20,8.05,few clouds
21,Victoria,HK,2021-08-14 16:50:28,22.2855,114.1577,82.45,86,100,8.39,overcast clouds
22,Ushuaia,AR,2021-08-14 16:50:39,-54.8,-68.3,38.82,70,40,0.0,scattered clouds
23,Port Alfred,ZA,2021-08-14 16:53:43,-33.5906,26.891,59.16,72,82,17.29,broken clouds
24,Camargo,MX,2021-08-14 16:53:43,27.6667,-105.1667,81.45,44,88,5.06,overcast clouds
25,Busselton,AU,2021-08-14 16:51:40,-33.65,115.3333,45.09,87,0,7.81,clear sky
26,Ilebo,CD,2021-08-14 16:53:44,-4.3167,20.5833,80.78,57,45,4.56,light rain
27,Arman,RU,2021-08-14 16:53:44,59.7,150.1667,55.76,93,100,2.98,overcast clouds
28,Esfarayen,IR,2021-08-14 16:53:44,37.0765,57.5101,78.46,22,0,7.67,clear sky
29,Fare,PF,2021-08-14 16:53:45,-16.7,-151.0167,78.1,75,2,6.42,clear sky
30,Thompson,CA,2021-08-14 16:53:45,55.7435,-97.8558,66.36,72,75,6.91,broken clouds
31,Broken Hill,AU,2021-08-14 16:53:45,-31.95,141.4333,47.91,53,1,6.91,clear sky
32,Santa Maria,BR,2021-08-14 16:53:46,-29.6842,-53.8069,67.3,68,40,4.61,scattered clouds
33,Upernavik,GL,2021-08-14 16:53:46,72.7868,-56.1549,46.33,94,100,10.4,overcast clouds
34,Cidreira,BR,2021-08-14 16:53:47,-30.1811,-50.2056,62.06,84,51,17.16,broken clouds
35,Talnakh,RU,2021-08-14 16:53:47,69.4865,88.3972,53.1,84,100,6.4,overcast clouds
36,Veraval,IN,2021-08-14 16:53:47,20.9,70.3667,80.4,81,100,16.55,overcast clouds
37,Mataura,NZ,2021-08-14 16:53:48,-46.1927,168.8643,44.47,83,95,5.97,overcast clouds
38,Warragul,AU,2021-08-14 16:53:48,-38.1667,145.9333,53.24,66,13,6.67,few clouds
39,Barrow,US,2021-08-14 16:53:49,71.2906,-156.7887,40.01,95,100,20.54,light rain
40,Mujiayingzi,CN,2021-08-14 16:53:49,42.1167,118.7833,64.47,82,100,2.3,light rain
41,Puerto Escondido,MX,2021-08-14 16:53:49,15.85,-97.0667,86.52,63,39,5.97,scattered clouds
42,Minatitlan,MX,2021-08-14 16:53:50,17.9833,-94.5167,84.81,71,42,6.82,scattered clouds
43,Saint-Philippe,RE,2021-08-14 16:53:50,-21.3585,55.7679,71.19,86,65,17.65,light rain
44,General Roca,AR,2021-08-14 16:53:50,-39.0333,-67.5833,57.6,22,1,10.71,clear sky
45,Caruaru,BR,2021-08-14 16:53:51,-8.2833,-35.9761,76.55,63,59,12.5,broken clouds
46,Longyearbyen,SJ,2021-08-14 16:53:51,78.2186,15.6401,46.24,66,20,6.91,few clouds
47,Faanui,PF,2021-08-14 16:53:51,-16.4833,-151.75,78.13,73,4,5.35,clear sky
48,Marawi,PH,2021-08-14 16:53:52,7.9986,124.2928,65.64,93,95,2.91,overcast clouds
49,Nioro,GM,2021-08-14 16:53:52,13.35,-15.75,86.41,67,100,5.68,overcast clouds
50,Pozo Colorado,PY,2021-08-14 16:53:52,-23.4923,-58.7972,79.47,22,0,4.07,clear sky
51,Mar Del Plata,AR,2021-08-14 16:51:39,-38.0023,-57.5575,51.82,93,0,11.5,clear sky
52,Bluff,NZ,2021-08-14 16:53:53,-46.6,168.3333,44.8,79,97,25.66,light rain
53,Laje,BR,2021-08-14 16:53:53,-10.1833,-40.9667,80.56,34,0,12.08,clear sky
54,Zhigansk,RU,2021-08-14 16:53:54,66.7697,123.3711,47.91,76,100,12.01,light rain
55,Dinguiraye,GN,2021-08-14 16:53:54,11.3,-10.7167,72.75,94,94,3.76,moderate rain
56,Torbay,CA,2021-08-14 16:53:55,47.6666,-52.7314,80.76,87,90,6.91,light rain
57,Kodiak,US,2021-08-14 16:53:56,57.79,-152.4072,49.14,71,14,6.4,few clouds
58,Sitka,US,2021-08-14 16:53:56,57.0531,-135.33,57.0,82,93,2.46,overcast clouds
59,Cherskiy,RU,2021-08-14 16:53:57,68.75,161.3,44.02,74,79,9.04,broken clouds
60,Sistranda,NO,2021-08-14 16:53:57,63.7256,8.834,57.9,84,100,16.46,light rain
61,Ribeira Grande,PT,2021-08-14 16:53:57,38.5167,-28.7,77.4,73,40,11.5,scattered clouds
62,Broome,US,2021-08-14 16:53:58,42.2506,-75.833,74.05,64,91,1.99,overcast clouds
63,Sao Filipe,CV,2021-08-14 16:53:58,14.8961,-24.4956,75.13,78,78,1.97,broken clouds
64,Qaanaaq,GL,2021-08-14 16:53:58,77.484,-69.3632,40.5,99,100,7.72,overcast clouds
65,Lata,PT,2021-08-14 16:53:59,40.1629,-8.3327,85.35,28,81,7.74,broken clouds
66,Yulara,AU,2021-08-14 16:51:28,-25.2406,130.9889,60.64,25,10,10.36,clear sky
67,Bathsheba,BB,2021-08-14 16:53:59,13.2167,-59.5167,83.01,83,75,3.44,broken clouds
68,Hithadhoo,MV,2021-08-14 16:54:00,-0.6,73.0833,82.33,73,73,13.53,broken clouds
69,Zaragoza,ES,2021-08-14 16:51:46,41.6561,-0.8773,106.25,21,0,7.0,clear sky
70,Jamestown,US,2021-08-14 16:54:00,42.097,-79.2353,77.18,54,1,1.99,clear sky
71,Concordia,AR,2021-08-14 16:51:04,-31.393,-58.0209,66.27,63,75,5.75,broken clouds
72,Saint George,US,2021-08-14 16:54:01,37.1041,-113.5841,92.79,35,1,4.0,clear sky
73,Kinshasa,CD,2021-08-14 16:53:37,-4.3246,15.3215,90.43,36,61,1.28,broken clouds
74,Okahandja,NA,2021-08-14 16:54:01,-21.9833,16.9167,79.11,18,0,7.38,clear sky
75,Bac Lieu,VN,2021-08-14 16:54:01,9.285,105.7244,80.15,84,100,5.99,overcast clouds
76,Constitucion,CL,2021-08-14 16:54:02,-35.3333,-72.4167,56.19,62,99,3.58,overcast clouds
77,Teguldet,RU,2021-08-14 16:54:02,57.3064,88.1667,52.45,84,6,4.32,clear sky
78,Seoul,KR,2021-08-14 16:53:16,37.5683,126.9778,74.71,71,0,8.05,clear sky
79,Mildura,AU,2021-08-14 16:54:03,-34.2,142.15,42.76,87,40,3.44,scattered clouds
80,Albany,US,2021-08-14 16:54:03,42.6001,-73.9662,84.15,76,80,9.86,broken clouds
81,Sibu,MY,2021-08-14 16:54:03,2.3,111.8167,77.31,94,40,2.3,light rain
82,Abha,SA,2021-08-14 16:54:04,18.2164,42.5053,82.22,16,20,17.27,few clouds
83,Ossora,RU,2021-08-14 16:54:04,59.2353,163.0719,53.74,86,23,3.29,few clouds
84,Leningradskiy,RU,2021-08-14 16:54:05,69.3833,178.4167,40.55,87,100,22.46,overcast clouds
85,Nanortalik,GL,2021-08-14 16:54:05,60.1432,-45.2371,50.16,91,100,8.28,overcast clouds
86,Airai,TL,2021-08-14 16:54:05,-8.9266,125.4092,55.06,73,5,3.38,clear sky
87,Chuy,UY,2021-08-14 16:51:09,-33.6971,-53.4616,57.18,92,100,6.69,overcast clouds
88,Ajdabiya,LY,2021-08-14 16:54:06,30.7554,20.2263,86.16,52,0,23.38,clear sky
89,Hobart,AU,2021-08-14 16:54:06,-42.8794,147.3294,54.05,64,40,3.0,scattered clouds
90,Ahipara,NZ,2021-08-14 16:54:06,-35.1667,173.1667,52.52,77,32,10.38,scattered clouds
91,Cape Coast,GH,2021-08-14 16:54:07,5.1053,-1.2466,77.56,75,42,15.97,scattered clouds
92,Foumban,CM,2021-08-14 16:54:07,5.7291,10.9001,68.45,91,78,2.01,moderate rain
93,Chokurdakh,RU,2021-08-14 16:54:07,70.6333,147.9167,40.82,76,100,12.91,overcast clouds
94,Kruisfontein,ZA,2021-08-14 16:54:08,-34.0033,24.7314,56.88,79,82,6.13,broken clouds
95,Benidorm,ES,2021-08-14 16:54:08,38.5382,-0.131,91.78,67,9,5.91,clear sky
96,Kapaa,US,2021-08-14 16:54:08,22.0752,-159.319,75.18,78,32,14.23,light rain
97,Beringovskiy,RU,2021-08-14 16:54:09,63.05,179.3167,54.45,78,75,9.13,broken clouds
98,Dikson,RU,2021-08-14 16:54:09,73.5069,80.5464,45.95,99,100,4.36,overcast clouds
99,Conde,BR,2021-08-14 16:54:09,-7.2597,-34.9075,83.66,58,40,11.5,scattered clouds
100,Khatanga,RU,2021-08-14 16:54:10,71.9667,102.5,53.28,63,100,4.34,overcast clouds
101,Kaitangata,NZ,2021-08-14 16:54:10,-46.2817,169.8464,45.55,76,85,12.15,overcast clouds
102,Ermua,ES,2021-08-14 16:54:11,43.1833,-2.5,72.95,70,55,6.02,broken clouds
103,Margate,GB,2021-08-14 16:54:11,51.3813,1.3862,75.87,52,52,3.0,broken clouds
104,Neiafu,TO,2021-08-14 16:54:11,-18.65,-173.9833,68.68,77,20,0.0,few clouds
105,Bredasdorp,ZA,2021-08-14 16:54:12,-34.5322,20.0403,56.52,62,0,11.5,clear sky
106,Bilma,NE,2021-08-14 16:54:12,18.6853,12.9164,103.53,12,37,3.83,scattered clouds
107,Komsomolskiy,UZ,2021-08-14 16:54:13,40.4272,71.7189,79.52,22,37,9.22,scattered clouds
108,Hilo,US,2021-08-14 16:49:44,19.7297,-155.09,73.13,90,75,5.75,light rain
109,Palmer,US,2021-08-14 16:54:13,42.1584,-72.3287,87.48,68,75,1.01,broken clouds
110,Lompoc,US,2021-08-14 16:54:14,34.6391,-120.4579,76.93,88,90,3.44,overcast clouds
111,Blackwater,AU,2021-08-14 16:54:14,-23.5833,148.8833,57.72,88,12,8.48,few clouds
112,Kushiro,JP,2021-08-14 16:54:14,42.975,144.3747,51.58,93,100,8.12,overcast clouds
113,Hambantota,LK,2021-08-14 16:54:15,6.1241,81.1185,80.01,76,92,19.17,overcast clouds
114,Roma,US,2021-08-14 16:52:03,43.2128,-75.4557,77.9,65,75,8.05,broken clouds
115,Clyde River,CA,2021-08-14 16:54:15,70.4692,-68.5914,41.23,93,90,8.05,mist
116,Toba,JP,2021-08-14 16:54:16,34.4833,136.85,78.8,86,100,19.17,light rain
117,Dunedin,NZ,2021-08-14 16:54:16,-45.8742,170.5036,49.8,47,64,11.01,broken clouds
118,Kavieng,PG,2021-08-14 16:54:16,-2.5744,150.7967,82.78,77,42,15.95,scattered clouds
119,Smithers,CA,2021-08-14 16:51:03,54.7804,-127.1743,61.12,88,90,10.36,overcast clouds
120,Carnarvon,AU,2021-08-14 16:54:17,-24.8667,113.6333,59.07,40,0,11.5,clear sky
121,Kalmunai,LK,2021-08-14 16:54:17,7.4167,81.8167,81.79,81,94,4.68,overcast clouds
122,Iqaluit,CA,2021-08-14 16:54:17,63.7506,-68.5145,44.33,81,75,14.97,broken clouds
123,Acapulco,MX,2021-08-14 16:54:18,16.8634,-99.8901,85.82,63,45,3.0,scattered clouds
124,Angoche,MZ,2021-08-14 16:54:18,-16.2325,39.9086,73.63,74,2,10.33,clear sky
125,Chaumont,FR,2021-08-14 16:54:19,48.1167,5.1333,85.37,70,4,6.38,clear sky
126,Nelson Bay,AU,2021-08-14 16:54:19,-32.7167,152.15,53.96,95,0,5.75,clear sky
127,Kibaya,TZ,2021-08-14 16:54:19,-5.3,36.5667,63.23,52,41,10.02,scattered clouds
128,Klaksvik,FO,2021-08-14 16:54:20,62.2266,-6.589,50.92,95,100,13.67,overcast clouds
129,Pokhara,NP,2021-08-14 16:54:20,28.2333,83.9833,72.97,90,99,1.97,overcast clouds
130,Kieta,PG,2021-08-14 16:54:20,-6.2167,155.6333,79.12,84,100,6.13,overcast clouds
131,Mingguang,CN,2021-08-14 16:54:21,32.7802,117.9638,72.27,93,97,5.86,light rain
132,Achutupo,PA,2021-08-14 16:54:21,9.2,-77.9833,84.29,69,98,4.7,overcast clouds
133,Cabo San Lucas,MX,2021-08-14 16:50:00,22.8909,-109.9124,90.61,65,1,0.0,clear sky
134,New Norfolk,AU,2021-08-14 16:54:22,-42.7826,147.0587,52.72,66,67,3.0,broken clouds
135,Syumsi,RU,2021-08-14 16:54:22,57.1111,51.6149,63.77,70,100,3.18,light rain
136,Georgetown,MY,2021-08-14 16:54:22,5.4112,100.3354,82.33,90,20,3.44,few clouds
137,Ugoofaaru,MV,2021-08-14 16:54:23,5.6667,73.0,82.4,76,100,17.22,overcast clouds
138,Los Llanos De Aridane,ES,2021-08-14 16:54:23,28.6585,-17.9182,73.15,73,20,17.27,few clouds
139,Capreol,CA,2021-08-14 16:54:23,46.706,-80.9225,68.92,56,75,4.0,broken clouds
140,Saint-Pierre,RE,2021-08-14 16:54:24,-21.3393,55.4781,71.28,79,75,23.02,light rain
141,Labytnangi,RU,2021-08-14 16:54:24,66.6572,66.4183,65.26,77,89,14.97,overcast clouds
142,Kolpashevo,RU,2021-08-14 16:54:24,58.3131,82.9089,55.02,88,95,6.02,overcast clouds
143,East London,ZA,2021-08-14 16:54:25,-33.0153,27.9116,58.14,82,20,6.91,few clouds
144,Tazovskiy,RU,2021-08-14 16:54:25,67.4667,78.7,56.77,88,100,12.17,overcast clouds
145,Tiksi,RU,2021-08-14 16:54:25,71.6872,128.8694,40.57,83,92,6.31,overcast clouds
146,Severo-Kurilsk,RU,2021-08-14 16:54:26,50.6789,156.125,52.41,87,9,8.61,clear sky
147,Khasan,RU,2021-08-14 16:54:26,42.4308,130.6434,64.99,82,31,1.86,scattered clouds
148,Yinchuan,CN,2021-08-14 16:54:27,38.4681,106.2731,77.83,43,67,13.94,broken clouds
149,San Ramon,US,2021-08-14 16:51:27,37.7799,-121.978,80.38,69,1,3.44,clear sky
150,Saskylakh,RU,2021-08-14 16:54:27,71.9167,114.0833,51.78,63,100,4.65,overcast clouds
151,Abonnema,NG,2021-08-14 16:54:27,4.7084,6.7931,81.54,69,93,9.6,overcast clouds
152,Itoman,JP,2021-08-14 16:54:28,26.1247,127.6694,82.42,92,20,10.36,few clouds
153,Port Hedland,AU,2021-08-14 16:54:28,-20.3167,118.5667,68.05,45,90,5.75,overcast clouds
154,Bengkulu,ID,2021-08-14 16:54:28,-3.8004,102.2655,75.99,91,97,4.76,overcast clouds
155,Narasannapeta,IN,2021-08-14 16:54:29,18.4167,84.05,82.31,80,97,4.12,overcast clouds
156,Vanavara,RU,2021-08-14 16:54:29,60.34,102.2797,63.25,66,99,1.99,overcast clouds
157,Yellowknife,CA,2021-08-14 16:54:30,62.456,-114.3525,61.32,100,75,8.05,light rain
158,Sibolga,ID,2021-08-14 16:54:30,1.7427,98.7792,76.12,91,100,3.47,overcast clouds
159,Abu Samrah,SY,2021-08-14 16:54:30,35.3029,37.1841,84.72,42,0,14.16,clear sky
160,Hermanus,ZA,2021-08-14 16:54:31,-34.4187,19.2345,52.66,76,0,13.94,clear sky
161,Verkhoyansk,RU,2021-08-14 16:54:31,67.5447,133.385,42.53,88,100,4.03,overcast clouds
162,Redlands,US,2021-08-14 16:54:32,34.0556,-117.1825,97.93,38,5,3.6,clear sky
163,Camacari,BR,2021-08-14 16:54:32,-12.6975,-38.3242,78.57,68,55,10.09,broken clouds
164,Puerto Ayora,EC,2021-08-14 16:54:32,-0.7393,-90.3518,73.36,73,94,8.59,overcast clouds
165,Cayenne,GF,2021-08-14 16:54:33,4.9333,-52.3333,85.08,79,40,5.01,scattered clouds
166,Port Augusta,AU,2021-08-14 16:54:33,-32.5,137.7667,41.14,62,4,2.39,clear sky
167,Sakakah,SA,2021-08-14 16:54:34,29.9697,40.2064,99.97,15,0,11.95,clear sky
168,Portland,US,2021-08-14 16:50:20,45.5234,-122.6762,81.09,62,40,3.44,smoke
169,Arona,ES,2021-08-14 16:54:34,28.0996,-16.681,78.69,61,0,18.41,clear sky
170,Husavik,IS,2021-08-14 16:54:34,66.0449,-17.3389,57.11,87,97,7.85,overcast clouds
171,Port-Gentil,GA,2021-08-14 16:54:35,-0.7193,8.7815,82.36,74,20,13.8,few clouds
172,Calama,CL,2021-08-14 16:54:35,-22.4667,-68.9333,70.29,14,15,20.71,few clouds
173,Fria,GN,2021-08-14 16:54:35,10.4167,-13.5833,75.67,93,98,4.88,moderate rain
174,Ketchikan,US,2021-08-14 16:54:36,55.3422,-131.6461,61.18,90,76,3.67,broken clouds
175,Lorengau,PG,2021-08-14 16:54:36,-2.0226,147.2712,80.92,82,45,9.35,scattered clouds
176,Powassan,CA,2021-08-14 16:54:37,46.0334,-79.3496,66.65,63,1,9.69,clear sky
177,Nalut,LY,2021-08-14 16:54:37,30.3333,10.85,97.05,15,5,14.12,clear sky
178,Tilichiki,RU,2021-08-14 16:54:37,60.4667,166.1,48.7,90,66,1.97,broken clouds
179,Cape Town,ZA,2021-08-14 16:50:56,-33.9258,18.4232,61.21,65,0,3.0,clear sky
180,Boende,CD,2021-08-14 16:54:38,-0.2167,20.8667,78.39,73,41,0.51,scattered clouds
181,Marsh Harbour,BS,2021-08-14 16:54:38,26.5412,-77.0636,84.4,70,78,16.64,broken clouds
182,Sol-Iletsk,RU,2021-08-14 16:54:39,51.1631,54.9918,71.51,24,7,4.65,clear sky
183,Watertown,US,2021-08-14 16:50:00,42.3709,-71.1828,91.51,62,40,1.01,scattered clouds
184,Atar,MR,2021-08-14 16:54:39,20.5169,-13.0499,109.29,12,24,20.07,few clouds
185,Itaituba,BR,2021-08-14 16:54:40,-4.2761,-55.9836,86.16,70,75,0.0,broken clouds
186,Salalah,OM,2021-08-14 16:54:40,17.0151,54.0924,76.19,94,100,6.26,overcast clouds
187,Umm Lajj,SA,2021-08-14 16:54:40,25.0213,37.2685,88.9,66,0,9.35,clear sky
188,Cabedelo,BR,2021-08-14 16:54:41,-6.9811,-34.8339,84.87,73,27,16.75,scattered clouds
189,Tuktoyaktuk,CA,2021-08-14 16:54:41,69.4541,-133.0374,44.6,87,90,12.66,overcast clouds
190,Yakeshi,CN,2021-08-14 16:54:41,49.2833,120.7333,55.92,87,27,2.26,scattered clouds
191,Strezhevoy,RU,2021-08-14 16:54:42,60.7333,77.5889,62.58,94,80,6.24,broken clouds
192,Waipawa,NZ,2021-08-14 16:54:42,-41.4122,175.5153,38.03,83,11,5.17,few clouds
193,Biltine,TD,2021-08-14 16:54:42,14.5333,20.9167,87.21,50,57,6.51,broken clouds
194,Funtua,NG,2021-08-14 16:54:43,11.5233,7.3081,76.26,78,79,5.73,light rain
195,Ozernovskiy,RU,2021-08-14 16:54:43,51.5,156.5167,51.62,84,6,5.82,clear sky
196,Rosenberg,SK,2021-08-14 16:54:43,49.0748,19.3075,81.36,67,40,1.25,scattered clouds
197,Porto Novo,BJ,2021-08-14 16:54:17,6.4965,2.6036,82.22,69,79,10.4,broken clouds
198,Gohpur,IN,2021-08-14 16:54:44,26.8833,93.6333,76.55,96,100,2.3,overcast clouds
199,Hillsborough,US,2021-08-14 16:54:44,37.5741,-122.3794,81.72,83,40,1.01,scattered clouds
200,Mahebourg,MU,2021-08-14 16:54:23,-20.4081,57.7,73.69,73,75,12.66,light rain
201,Lyuban,BY,2021-08-14 16:54:45,52.7985,28.0048,70.41,64,79,7.02,broken clouds
202,Iquitos,PE,2021-08-14 16:54:45,-3.7481,-73.2472,84.24,70,75,4.61,broken clouds
203,Dzaoudzi,YT,2021-08-14 16:54:45,-12.7887,45.2699,76.89,83,40,6.91,scattered clouds
204,Paptalaya,HN,2021-08-14 16:54:46,15.5,-84.3167,89.64,53,30,4.45,scattered clouds
205,Asfi,MA,2021-08-14 16:54:46,32.2994,-9.2372,80.33,61,22,11.63,few clouds
206,Nome,US,2021-08-14 16:51:23,64.5011,-165.4064,48.27,87,90,14.97,light rain
207,Haines Junction,CA,2021-08-14 16:54:47,60.7522,-137.5108,48.15,93,100,1.14,overcast clouds
208,Kahului,US,2021-08-14 16:54:47,20.8947,-156.47,74.46,93,33,13.04,scattered clouds
209,Ishigaki,JP,2021-08-14 16:54:47,24.3448,124.1572,82.65,84,19,17.31,few clouds
210,Vila,PT,2021-08-14 16:54:48,42.0304,-8.1588,82.71,41,94,7.11,overcast clouds
211,Nikolskoye,RU,2021-08-14 16:54:48,59.7035,30.7861,67.89,90,94,7.45,overcast clouds
212,Jiangyou,CN,2021-08-14 16:54:48,31.7667,104.7167,72.1,92,80,1.16,broken clouds
213,Rawson,AR,2021-08-14 16:54:49,-43.3002,-65.1023,55.47,56,55,11.14,broken clouds
214,Taoudenni,ML,2021-08-14 16:54:49,22.6783,-3.9836,114.08,6,30,12.39,scattered clouds
215,College,US,2021-08-14 16:54:50,64.8569,-147.8028,50.29,89,90,3.44,overcast clouds
216,Axim,GH,2021-08-14 16:54:50,4.8699,-2.2405,78.78,69,6,10.13,clear sky
217,Half Moon Bay,US,2021-08-14 16:54:50,37.4636,-122.4286,80.58,82,40,4.61,scattered clouds
218,Esperance,AU,2021-08-14 16:54:51,-33.8667,121.9,51.64,74,42,7.47,scattered clouds
219,Votkinsk,RU,2021-08-14 16:54:51,57.0486,53.9872,64.78,71,98,4.76,light rain
220,Birjand,IR,2021-08-14 16:54:51,32.8663,59.2211,81.07,16,0,13.8,clear sky
221,Castro,BR,2021-08-14 16:54:52,-24.7911,-50.0119,64.13,69,80,5.61,broken clouds
222,Gambela,ET,2021-08-14 16:54:52,8.25,34.5833,71.91,94,93,1.72,overcast clouds
223,Sorland,NO,2021-08-14 16:54:52,67.667,12.6934,52.05,76,12,24.0,few clouds
224,Shwebo,MM,2021-08-14 16:54:53,22.5667,95.7,77.45,87,98,7.7,overcast clouds
225,Nisia Floresta,BR,2021-08-14 16:54:53,-6.0911,-35.2086,88.61,44,23,15.88,few clouds
226,Sobolevo,RU,2021-08-14 16:54:53,54.4299,31.8996,68.76,63,91,6.91,overcast clouds
227,Evinayong,GQ,2021-08-14 16:54:54,1.4368,10.5512,73.74,80,87,3.22,overcast clouds
228,Kulachi,PK,2021-08-14 16:54:54,31.9286,70.4592,102.24,27,16,11.25,few clouds
229,Tezu,IN,2021-08-14 16:54:54,27.9167,96.1667,75.4,99,100,2.8,overcast clouds
230,Otane,NZ,2021-08-14 16:54:55,-39.8833,176.6333,35.38,92,4,2.48,clear sky
231,San Quintin,MX,2021-08-14 16:54:55,30.4833,-115.95,76.86,64,0,13.04,clear sky
232,Roros,NO,2021-08-14 16:54:55,62.5747,11.3842,48.04,87,90,4.61,light intensity shower rain
233,Buraydah,SA,2021-08-14 16:54:42,26.326,43.975,106.25,11,19,8.32,few clouds
234,Mogadishu,SO,2021-08-14 16:54:56,2.0371,45.3438,76.35,87,73,18.41,broken clouds
235,Tomatlan,MX,2021-08-14 16:54:57,19.9333,-105.25,87.3,64,18,4.0,few clouds
236,Emerald,AU,2021-08-14 16:54:57,-23.5333,148.1667,57.34,77,20,5.75,few clouds
237,Lebu,CL,2021-08-14 16:54:58,-37.6167,-73.65,52.43,70,98,5.1,overcast clouds
238,Geraldton,AU,2021-08-14 16:54:58,-28.7667,114.6,45.01,93,0,6.91,clear sky
239,Wageningen,NL,2021-08-14 16:54:59,51.9667,5.6667,76.24,63,30,5.75,scattered clouds
240,Baherden,TM,2021-08-14 16:54:59,38.4362,57.4316,84.43,17,0,7.85,clear sky
241,Kupang,ID,2021-08-14 16:54:59,-10.1667,123.5833,76.01,79,4,11.14,clear sky
242,Hoquiam,US,2021-08-14 16:55:00,46.9809,-123.8893,63.95,78,99,1.99,overcast clouds
243,Codrington,AU,2021-08-14 16:55:00,-38.2667,141.9667,46.58,91,5,13.67,clear sky
244,Arraial Do Cabo,BR,2021-08-14 16:55:00,-22.9661,-42.0278,66.16,88,90,9.22,overcast clouds
245,Turinsk,RU,2021-08-14 16:55:01,58.0458,63.696,68.5,62,40,7.38,scattered clouds
246,Alta Floresta,BR,2021-08-14 16:55:03,-9.8756,-56.0861,98.51,18,40,6.31,scattered clouds
247,Coihaique,CL,2021-08-14 16:55:04,-45.5752,-72.0662,48.81,57,0,0.0,clear sky
248,Padang,ID,2021-08-14 16:50:13,-0.9492,100.3543,76.51,93,100,7.36,light rain
249,Samana,DO,2021-08-14 16:55:05,19.2056,-69.3369,86.22,74,40,6.91,scattered clouds
250,Egvekinot,RU,2021-08-14 16:55:05,66.3167,-179.1667,42.96,98,100,0.85,overcast clouds
251,Provideniya,RU,2021-08-14 16:55:05,64.3833,-173.3,48.29,98,100,5.55,overcast clouds
252,Butaritari,KI,2021-08-14 16:54:40,3.0707,172.7902,82.35,75,67,9.19,light rain
253,Alice Springs,AU,2021-08-14 16:55:06,-23.7,133.8833,49.55,43,0,5.75,clear sky
254,Lazaro Cardenas,MX,2021-08-14 16:55:06,17.9583,-102.2,85.01,71,82,0.47,broken clouds
255,Nacala,MZ,2021-08-14 16:55:07,-14.5428,40.6728,76.32,64,0,18.41,clear sky
256,Yuci,CN,2021-08-14 16:55:07,37.6803,112.7319,71.35,73,28,8.95,scattered clouds
257,Alvorada,BR,2021-08-14 16:55:07,-12.48,-49.1247,96.71,15,2,6.29,clear sky
258,Naraina,IN,2021-08-14 16:55:08,26.7833,75.2,84.34,55,100,8.05,overcast clouds
259,Kilindoni,TZ,2021-08-14 16:55:08,-7.9139,39.6668,77.13,78,7,16.26,clear sky
260,Hofn,IS,2021-08-14 16:55:08,64.2539,-15.2082,53.13,92,100,11.83,overcast clouds
261,Kalasin,TH,2021-08-14 16:55:09,16.5,103.5,75.58,93,100,9.15,overcast clouds
262,Whitehorse,CA,2021-08-14 16:55:09,60.7161,-135.0538,54.1,71,90,10.36,overcast clouds
263,Huicheng,CN,2021-08-14 16:55:10,23.0385,116.2899,78.75,91,100,7.61,light rain
264,Poum,NC,2021-08-14 16:55:10,-20.2333,164.0167,68.49,65,41,14.74,scattered clouds
265,Olavarria,AR,2021-08-14 16:55:10,-36.8927,-60.3225,57.02,52,0,8.23,clear sky
266,Eshowe,ZA,2021-08-14 16:54:12,-28.8865,31.4699,50.97,78,100,3.06,overcast clouds
267,Worland,US,2021-08-14 16:55:11,44.0169,-107.9554,83.55,25,8,1.74,clear sky
268,Zhanaozen,KZ,2021-08-14 16:55:11,43.3,52.8,83.37,19,0,10.54,clear sky
269,Prado,BR,2021-08-14 16:51:50,-17.3411,-39.2208,76.69,58,13,7.83,few clouds
270,Caravelas,BR,2021-08-14 16:55:12,-17.7125,-39.2481,77.31,56,10,7.94,clear sky
271,Mayo,US,2021-08-14 16:55:12,38.8876,-76.5119,91.36,70,85,4.0,overcast clouds
272,Srednekolymsk,RU,2021-08-14 16:55:12,67.45,153.6833,45.14,91,100,10.56,moderate rain
273,Ibra,OM,2021-08-14 16:55:13,22.6906,58.5334,91.26,39,63,10.92,broken clouds
274,Walvis Bay,NA,2021-08-14 16:55:13,-22.9575,14.5053,58.15,77,0,9.22,clear sky
275,Wanaka,NZ,2021-08-14 16:55:14,-44.7,169.15,32.54,80,7,5.59,clear sky
276,Henties Bay,NA,2021-08-14 16:55:14,-22.116,14.2845,54.86,78,0,3.0,clear sky
277,Pitimbu,BR,2021-08-14 16:55:14,-7.4706,-34.8086,84.79,71,35,14.72,scattered clouds
278,San Juan,AR,2021-08-14 16:55:15,-31.5375,-68.5364,67.82,18,7,6.42,clear sky
279,Mountain Home,US,2021-08-14 16:55:15,43.133,-115.6912,81.88,21,1,11.5,haze
280,Columbus,US,2021-08-14 16:51:12,39.9612,-82.9988,81.7,57,90,1.01,overcast clouds
281,Coquimbo,CL,2021-08-14 16:55:15,-29.9533,-71.3436,56.93,67,20,9.22,few clouds
282,Chicama,PE,2021-08-14 16:55:16,-7.8447,-79.1469,64.94,59,46,9.53,scattered clouds
283,Tasiilaq,GL,2021-08-14 16:55:16,65.6145,-37.6368,42.06,87,29,8.23,scattered clouds
284,Rafai,CF,2021-08-14 16:55:16,4.95,23.9167,74.39,80,94,2.24,overcast clouds
285,Bambous Virieux,MU,2021-08-14 16:55:01,-20.3428,57.7575,73.65,73,75,12.66,broken clouds
286,Sarkand,KZ,2021-08-14 16:55:17,45.41,79.9186,57.63,71,47,4.36,scattered clouds
287,Aklavik,CA,2021-08-14 16:55:17,68.2191,-135.0107,49.03,87,40,8.05,haze
288,Ponta Do Sol,PT,2021-08-14 16:55:18,32.6667,-17.1,85.71,72,86,0.2,overcast clouds
289,San Antonio,US,2021-08-14 16:51:52,29.4241,-98.4936,92.28,64,20,0.0,few clouds
290,Amapa,BR,2021-08-14 16:55:18,1.0,-52.0,85.51,62,77,5.88,broken clouds
291,Luancheng,CN,2021-08-14 16:55:18,37.8792,114.6517,73.56,88,0,5.7,clear sky
292,Mount Gambier,AU,2021-08-14 16:55:19,-37.8333,140.7667,46.31,100,6,11.5,clear sky
293,Kuzino,RU,2021-08-14 16:55:19,57.0224,59.4412,64.11,86,52,6.06,broken clouds
294,Port Macquarie,AU,2021-08-14 16:55:19,-31.4333,152.9167,48.16,100,25,0.0,scattered clouds
295,Poronaysk,RU,2021-08-14 16:55:20,49.2167,143.1167,52.41,89,98,4.56,overcast clouds
296,Druskininkai,LT,2021-08-14 16:55:20,54.0167,23.9667,67.96,89,100,5.73,overcast clouds
297,Tura,IN,2021-08-14 16:55:20,25.5198,90.2201,74.01,96,99,4.85,overcast clouds
298,Itarema,BR,2021-08-14 16:55:21,-2.9248,-39.9167,87.28,50,60,17.11,broken clouds
299,Avarua,CK,2021-08-14 16:55:21,-21.2078,-159.775,69.85,78,20,5.75,light rain
300,Lovozero,RU,2021-08-14 16:55:22,68.005,35.0117,55.11,71,58,7.07,broken clouds
301,Manicore,BR,2021-08-14 16:55:22,-5.8092,-61.3003,82.35,74,90,4.61,overcast clouds
302,Valparaiso,CL,2021-08-14 16:55:22,-33.0393,-71.6273,58.64,65,75,3.44,haze
303,Saint-Augustin,CA,2021-08-14 16:55:23,51.226,-58.6502,73.18,73,71,8.9,broken clouds
304,Bandarbeyla,SO,2021-08-14 16:55:23,9.4942,50.8122,77.18,83,56,32.44,broken clouds
305,Bowen,AU,2021-08-14 16:55:23,-20.0167,148.2333,66.42,89,62,11.97,broken clouds
306,Abnub,EG,2021-08-14 16:55:24,27.2696,31.1511,98.82,13,0,11.07,clear sky
307,Rapid Valley,US,2021-08-14 16:55:24,44.0625,-103.1463,91.15,44,1,1.01,clear sky
308,Wufeng,CN,2021-08-14 16:55:24,27.45,104.8333,59.2,95,100,0.85,overcast clouds
309,Micco,US,2021-08-14 16:55:25,27.8806,-80.5003,88.07,69,100,1.99,overcast clouds
310,Kiama,AU,2021-08-14 16:55:25,-34.6833,150.8667,53.01,81,3,6.02,clear sky
311,Mlonggo,ID,2021-08-14 16:55:25,-6.5333,110.7,79.41,80,82,5.86,broken clouds
312,Lashio,MM,2021-08-14 16:55:26,22.9333,97.75,68.49,100,100,1.45,overcast clouds
313,Muravlenko,RU,2021-08-14 16:55:26,63.7898,74.523,62.06,75,2,14.63,clear sky
314,Kumluca,TR,2021-08-14 16:55:27,36.3703,30.2869,84.16,55,0,7.92,clear sky
315,Ayan,RU,2021-08-14 16:55:27,56.45,138.1667,64.78,77,56,4.79,broken clouds
316,Sosnogorsk,RU,2021-08-14 16:55:27,63.6023,53.8817,60.35,68,74,14.54,broken clouds
317,Jumla,NP,2021-08-14 16:55:28,29.2747,82.1838,61.63,90,71,2.06,broken clouds
318,Ambon,ID,2021-08-14 16:55:28,-3.6954,128.1814,78.94,89,40,5.75,scattered clouds
319,Lavrentiya,RU,2021-08-14 16:55:28,65.5833,-171.0,45.45,96,99,6.46,overcast clouds
320,Liberal,US,2021-08-14 16:55:29,37.0431,-100.921,85.15,51,1,5.75,clear sky
321,Wasilla,US,2021-08-14 16:55:29,61.5814,-149.4394,53.85,93,40,0.0,mist
322,Kasongo-Lunda,CD,2021-08-14 16:55:29,-6.4667,16.8167,83.7,44,66,1.9,broken clouds
323,Hasaki,JP,2021-08-14 16:54:44,35.7333,140.8333,70.2,94,100,2.93,overcast clouds
324,Uthal,PK,2021-08-14 16:55:30,25.8072,66.6219,80.96,76,81,12.01,broken clouds
325,Shirokiy,RU,2021-08-14 16:55:31,49.758,129.523,59.56,86,15,2.59,few clouds
326,Salinas,US,2021-08-14 16:51:15,36.6777,-121.6555,79.03,72,40,3.44,scattered clouds
327,La Primavera,CO,2021-08-14 16:55:31,5.4906,-70.4092,72.93,94,100,5.73,light rain
328,Alyangula,AU,2021-08-14 16:55:31,-13.8483,136.4192,69.67,94,5,0.0,clear sky
329,Marystown,CA,2021-08-14 16:55:32,47.1666,-55.1483,71.51,87,95,5.12,overcast clouds
330,Tateyama,JP,2021-08-14 16:55:32,34.9833,139.8667,69.82,90,100,24.76,light rain
331,Praxedis Guerrero,MX,2021-08-14 16:55:32,31.3667,-106.0167,72.99,75,100,5.75,overcast clouds
332,Ban Nahin,LA,2021-08-14 16:55:33,18.2418,104.2122,74.46,99,100,2.8,overcast clouds
333,Divnogorsk,RU,2021-08-14 16:55:33,55.9594,92.3619,57.69,97,100,3.83,overcast clouds
334,Devonport,AU,2021-08-14 16:55:34,-41.1667,146.35,54.09,80,84,18.45,broken clouds
335,Almeirim,BR,2021-08-14 16:54:08,-1.5233,-52.5817,87.6,59,88,3.94,overcast clouds
336,Dombarovskiy,RU,2021-08-14 16:55:34,50.7587,59.5386,70.81,26,7,6.31,clear sky
337,Spassk,RU,2021-08-14 16:55:35,52.747,87.7545,55.06,99,100,2.39,overcast clouds
338,Shelburne,CA,2021-08-14 16:55:35,44.0787,-80.2041,72.66,42,0,11.34,clear sky
339,Roswell,US,2021-08-14 16:55:36,34.0232,-84.3616,93.74,59,20,1.01,few clouds
340,Xichang,CN,2021-08-14 16:55:36,27.8964,102.2634,64.81,90,100,0.31,overcast clouds
341,Manoharpur,IN,2021-08-14 16:55:36,27.3,75.95,83.35,59,73,8.93,broken clouds
342,The Pas,CA,2021-08-14 16:55:37,53.8251,-101.2541,75.22,53,1,12.06,clear sky
343,Bumba,CD,2021-08-14 16:55:23,2.1833,22.4667,77.63,69,67,1.52,broken clouds
344,Bundibugyo,UG,2021-08-14 16:55:37,0.7414,30.0417,67.6,96,99,3.24,light rain
345,Quatre Cocos,MU,2021-08-14 16:55:07,-20.2078,57.7625,73.51,76,13,15.3,few clouds
346,Omsukchan,RU,2021-08-14 16:55:38,62.5333,155.8,54.7,86,90,8.68,overcast clouds
347,Jiazi,CN,2021-08-14 16:55:38,22.8779,116.067,80.08,88,100,8.59,light rain
348,Chitungwiza,ZW,2021-08-14 16:55:38,-18.0127,31.0756,55.51,75,3,12.48,clear sky
349,Petropavlovsk-Kamchatskiy,RU,2021-08-14 16:55:39,53.0452,158.6483,48.79,100,75,4.47,broken clouds
350,Council Bluffs,US,2021-08-14 16:55:00,41.2619,-95.8608,83.3,46,1,1.99,clear sky
351,Batemans Bay,AU,2021-08-14 16:55:39,-35.7167,150.1833,45.91,83,2,4.76,clear sky
352,Fortuna,US,2021-08-14 16:55:40,40.5982,-124.1573,55.74,56,43,5.86,scattered clouds
353,Santa Cruz Del Sur,CU,2021-08-14 16:55:40,20.7147,-77.9956,86.61,62,78,9.04,light rain
354,Ares,BR,2021-08-14 16:55:40,-6.1944,-35.1603,88.34,50,18,17.05,few clouds
355,Dhar,IN,2021-08-14 16:55:41,22.6,75.3,74.05,79,3,5.55,clear sky
356,Kachiry,KZ,2021-08-14 16:55:41,53.0675,76.1036,58.33,68,20,7.31,few clouds
357,Olafsvik,IS,2021-08-14 16:55:41,64.8945,-23.7142,54.68,78,57,13.11,broken clouds
358,Camacha,PT,2021-08-14 16:55:42,33.0833,-16.3333,74.62,69,20,13.8,few clouds
359,Bilibino,RU,2021-08-14 16:55:42,68.0546,166.4372,43.18,78,99,5.03,overcast clouds
360,Togur,RU,2021-08-14 16:55:42,58.3631,82.8265,55.31,90,91,6.13,overcast clouds
361,Edd,ER,2021-08-14 16:55:43,13.9297,41.6925,92.07,55,22,3.31,few clouds
362,Goya,AR,2021-08-14 16:55:43,-29.14,-59.2626,71.33,41,0,4.65,clear sky
363,Gerash,IR,2021-08-14 16:55:44,27.6652,54.1371,89.74,29,66,4.52,broken clouds
364,Kloulklubed,PW,2021-08-14 16:55:44,7.0419,134.2556,75.7,74,21,9.24,few clouds
365,Honiara,SB,2021-08-14 16:55:44,-9.4333,159.95,76.53,89,100,4.9,overcast clouds
366,Lubao,PH,2021-08-14 16:55:45,14.9167,120.55,82.42,85,97,3.38,overcast clouds
367,Xinglongshan,CN,2021-08-14 16:55:45,43.9561,125.4661,65.95,94,20,2.24,few clouds
368,Khed Brahma,IN,2021-08-14 16:55:45,24.0333,73.05,81.9,65,56,5.91,broken clouds
369,Ancud,CL,2021-08-14 16:55:46,-41.8697,-73.8203,48.42,69,100,3.74,overcast clouds
370,Port Hardy,CA,2021-08-14 16:55:46,50.6996,-127.4199,59.18,88,75,5.75,broken clouds
371,Barra Do Corda,BR,2021-08-14 16:55:46,-5.5,-45.25,98.37,23,5,7.61,clear sky
372,Starosubkhangulovo,RU,2021-08-14 16:55:47,53.1031,57.4423,61.88,50,7,2.13,clear sky
373,Avera,US,2021-08-14 16:55:47,33.194,-82.5271,93.7,49,87,5.12,overcast clouds
374,Buala,SB,2021-08-14 16:55:47,-8.145,159.5921,80.01,83,95,9.57,overcast clouds
375,Teya,RU,2021-08-14 16:55:48,60.3778,92.6267,54.5,95,99,3.04,overcast clouds
376,Raga,SS,2021-08-14 16:55:48,8.4596,25.678,71.78,89,100,2.08,overcast clouds
377,Vestmannaeyjar,IS,2021-08-14 16:55:48,63.4427,-20.2734,59.99,77,20,19.57,few clouds
378,Xacmaz,AZ,2021-08-14 16:55:49,41.4635,48.806,78.08,68,86,3.56,overcast clouds
379,Korla,CN,2021-08-14 16:55:49,41.7597,86.1469,81.77,28,98,7.56,overcast clouds
380,Suhbaatar,MN,2021-08-14 16:55:50,50.2314,106.2078,63.09,86,7,1.54,clear sky
381,Peniche,PT,2021-08-14 16:55:50,39.3558,-9.3811,90.88,85,91,16.91,overcast clouds
382,Amuntai,ID,2021-08-14 16:55:50,-2.4177,115.2494,73.24,98,100,1.16,overcast clouds
383,Sambava,MG,2021-08-14 16:54:18,-14.2667,50.1667,72.75,81,0,16.28,clear sky
384,Jamame,SO,2021-08-14 16:55:51,0.0722,42.7506,75.13,84,27,13.22,scattered clouds
385,Pimenta Bueno,BR,2021-08-14 16:55:51,-11.6725,-61.1936,100.98,17,34,2.55,scattered clouds
386,Biak,ID,2021-08-14 16:55:51,-0.9131,122.8766,74.91,87,30,8.48,scattered clouds
387,Ambilobe,MG,2021-08-14 16:55:52,-13.2,49.05,72.48,75,0,2.19,clear sky
388,Rodrigues Alves,BR,2021-08-14 16:55:52,-7.738,-72.6509,84.4,28,96,2.28,overcast clouds
389,Rocha,UY,2021-08-14 16:55:33,-34.4833,-54.3333,55.9,86,100,6.22,overcast clouds
390,Fukue,JP,2021-08-14 16:55:53,32.6881,128.8419,78.53,81,100,16.53,overcast clouds
391,Port Blair,IN,2021-08-14 16:55:53,11.6667,92.75,81.5,84,100,13.49,overcast clouds
392,Nhulunbuy,AU,2021-08-14 16:54:20,-12.2333,136.7667,75.81,88,40,9.22,scattered clouds
393,Ise,JP,2021-08-14 16:55:53,34.4833,136.7,78.12,88,100,10.36,light rain
394,Newport,GB,2021-08-14 16:55:54,51.5877,-2.9984,73.85,71,97,9.01,overcast clouds
395,Shaowu,CN,2021-08-14 16:55:54,27.3409,117.4831,75.25,99,100,0.72,overcast clouds
396,Monrovia,LR,2021-08-14 16:55:54,6.3005,-10.7969,83.97,71,100,8.72,overcast clouds
397,Naze,JP,2021-08-14 16:55:55,28.3667,129.4833,78.28,88,100,14.7,overcast clouds
398,Volsk,RU,2021-08-14 16:55:55,52.0333,47.3833,75.72,43,100,15.14,overcast clouds
399,Pisco,PE,2021-08-14 16:55:55,-13.7,-76.2167,62.65,88,90,4.61,mist
400,Qasigiannguit,GL,2021-08-14 16:55:56,68.8193,-51.1922,46.98,90,99,1.86,overcast clouds
401,Jutai,BR,2021-08-14 16:55:56,-5.1833,-68.9,94.37,30,91,3.11,overcast clouds
402,Santiago Del Estero,AR,2021-08-14 16:55:56,-27.7951,-64.2615,66.81,19,0,2.95,clear sky
403,Tarn Taran,IN,2021-08-14 16:55:57,31.45,74.9253,85.89,56,5,8.05,clear sky
404,Safford,US,2021-08-14 16:55:57,32.834,-109.7076,76.51,58,97,6.82,overcast clouds
405,Vao,NC,2021-08-14 16:55:31,-22.6667,167.4833,66.42,63,26,16.04,scattered clouds
406,Pimentel,PE,2021-08-14 16:55:58,-6.8367,-79.9342,73.69,80,0,8.01,clear sky
407,Tuscaloosa,US,2021-08-14 16:54:55,33.2098,-87.5692,92.64,71,75,1.01,broken clouds
408,Phangnga,TH,2021-08-14 16:55:58,8.4509,98.5298,77.11,92,100,2.46,light rain
409,Ambulu,ID,2021-08-14 16:55:58,-8.345,113.6058,74.61,91,12,4.12,few clouds
410,Lamu,KE,2021-08-14 16:54:17,-2.2717,40.902,75.42,85,16,17.02,few clouds
411,Puqi,CN,2021-08-14 16:55:59,29.7167,113.8833,71.98,97,100,1.12,light rain
412,Puri,IN,2021-08-14 16:55:59,19.8,85.85,79.32,77,90,8.86,overcast clouds
413,Listvyanskiy,RU,2021-08-14 16:56:00,54.4399,83.4984,58.19,83,100,3.71,overcast clouds
414,Mizan Teferi,ET,2021-08-14 16:56:00,6.9833,35.5833,61.66,99,100,0.29,heavy intensity rain
415,Vostok,RU,2021-08-14 16:56:00,46.4856,135.8833,55.31,84,83,3.29,broken clouds
416,Kande,TG,2021-08-14 16:56:01,9.9578,1.0447,80.94,90,98,5.17,moderate rain
417,Stadtallendorf,DE,2021-08-14 16:56:01,50.8333,9.0167,80.85,53,7,7.45,clear sky
418,Inongo,CD,2021-08-14 16:56:01,-1.95,18.2667,75.09,61,53,2.68,broken clouds
419,Dingle,PH,2021-08-14 16:54:30,10.9995,122.6711,75.83,90,44,3.09,scattered clouds
420,Donghai,CN,2021-08-14 16:56:02,22.9459,115.642,79.03,89,100,4.52,overcast clouds
421,Belaya Gora,RU,2021-08-14 16:56:02,68.5333,146.4167,44.4,82,100,8.46,overcast clouds
422,Abay,KZ,2021-08-14 16:56:03,49.6311,72.8539,44.98,59,52,5.82,broken clouds
423,Zhenlai,CN,2021-08-14 16:56:03,45.8495,123.2973,61.75,91,7,5.86,clear sky
424,Siderno,IT,2021-08-14 16:56:04,38.2779,16.302,87.01,54,2,4.36,clear sky
425,Lac Du Bonnet,CA,2021-08-14 16:55:23,50.2536,-96.0612,80.85,27,45,8.79,scattered clouds
426,Narsaq,GL,2021-08-14 16:56:04,60.9167,-46.05,51.66,79,100,1.23,light rain
427,Deniliquin,AU,2021-08-14 16:56:04,-35.5333,144.9667,52.03,59,100,5.5,overcast clouds
428,Coxim,BR,2021-08-14 16:56:05,-18.5067,-54.76,95.56,19,21,3.04,few clouds
429,Bangkal,PH,2021-08-14 16:56:05,6.0667,121.0667,78.28,87,71,5.44,broken clouds
430,Denpasar,ID,2021-08-14 16:56:05,-8.65,115.2167,78.46,94,75,9.22,broken clouds
431,Asau,RO,2021-08-14 16:56:06,46.4333,26.4,76.39,61,20,1.95,few clouds
432,Tawau,MY,2021-08-14 16:56:06,4.2498,117.8871,77.13,86,31,3.96,scattered clouds
433,Vardo,NO,2021-08-14 16:56:07,70.3705,31.1107,50.14,84,84,3.85,broken clouds
434,Hami,CN,2021-08-14 16:55:38,42.8,93.45,91.2,17,62,10.65,broken clouds
435,Evensk,RU,2021-08-14 16:56:07,61.95,159.2333,49.5,99,100,7.96,overcast clouds
436,Porto Santo,PT,2021-08-14 16:56:08,33.072,-16.3415,77.38,69,20,13.8,few clouds
437,Acarau,BR,2021-08-14 16:54:23,-2.8856,-40.12,88.36,50,61,16.98,broken clouds
438,Morgan City,US,2021-08-14 16:56:08,29.6994,-91.2068,91.04,55,22,5.21,few clouds
439,Mazagao,BR,2021-08-14 16:56:09,-0.115,-51.2894,87.85,57,52,6.82,broken clouds
440,Dana Point,US,2021-08-14 16:54:59,33.467,-117.6981,89.35,69,5,4.0,clear sky
441,Coahuayana,MX,2021-08-14 16:56:09,18.7333,-103.6833,88.95,62,62,3.36,broken clouds
442,Bowling Green,US,2021-08-14 16:56:09,36.9903,-86.4436,85.1,70,100,2.66,overcast clouds
443,Maumere,ID,2021-08-14 16:56:10,-8.6199,122.2111,77.09,66,4,2.35,clear sky
444,Salinopolis,BR,2021-08-14 16:56:10,-0.6136,-47.3561,83.16,75,79,10.63,broken clouds
445,Anadyr,RU,2021-08-14 16:56:11,64.75,177.4833,54.1,87,20,2.24,few clouds
446,Veinticinco De Mayo,AR,2021-08-14 16:56:11,-35.4323,-60.1727,59.16,49,0,5.26,clear sky
447,Boa Vista,BR,2021-08-14 16:56:11,2.8197,-60.6733,84.18,61,75,5.75,broken clouds
448,Yantal,RU,2021-08-14 16:56:12,56.8471,105.2542,68.63,69,100,3.56,overcast clouds
449,Mecca,SA,2021-08-14 16:56:12,21.4267,39.8261,97.43,27,64,10.11,broken clouds
450,Prince Rupert,CA,2021-08-14 16:56:12,54.3161,-130.3201,59.09,94,90,2.3,mist
451,Tautira,PF,2021-08-14 16:56:13,-17.7333,-149.15,73.42,76,24,10.11,light rain
452,Urazovo,RU,2021-08-14 16:56:13,50.0836,38.0395,70.9,55,100,7.2,overcast clouds
453,Nizhniy Baskunchak,RU,2021-08-14 16:56:13,48.2198,46.8311,87.48,25,7,18.12,clear sky
454,Toamasina,MG,2021-08-14 16:56:14,-18.1667,49.3833,73.4,83,75,16.11,shower rain
455,Impfondo,CG,2021-08-14 16:56:14,1.6381,18.0667,81.57,62,89,1.9,overcast clouds
456,George Town,MY,2021-08-14 16:54:22,5.4112,100.3354,82.33,90,20,3.44,few clouds
457,Hima,UG,2021-08-14 16:56:14,0.2958,30.1804,69.03,87,86,1.99,moderate rain
458,Wenling,CN,2021-08-14 16:56:15,28.3669,121.36,78.75,93,99,1.19,moderate rain
459,Havre-Saint-Pierre,CA,2021-08-14 16:56:15,50.2334,-63.5986,79.16,73,20,10.36,few clouds
460,San Rafael,AR,2021-08-14 16:54:17,-34.6177,-68.3301,67.57,11,12,5.91,few clouds
461,Yar-Sale,RU,2021-08-14 16:56:16,66.8333,70.8333,63.55,75,100,12.15,light rain
462,Richards Bay,ZA,2021-08-14 16:56:16,-28.783,32.0377,58.05,78,100,2.8,overcast clouds
463,Dalbandin,PK,2021-08-14 16:56:16,28.8947,64.4101,94.21,9,7,20.58,clear sky
464,Darhan,MN,2021-08-14 16:56:17,49.4867,105.9228,62.87,84,5,2.71,clear sky
465,Lydenburg,ZA,2021-08-14 16:56:17,-25.0978,30.4597,49.28,94,57,4.32,broken clouds
466,Saldanha,ZA,2021-08-14 16:56:17,-33.0117,17.9442,60.85,70,0,12.1,clear sky
467,Chebsara,RU,2021-08-14 16:56:18,59.2002,38.8356,67.33,85,75,5.82,broken clouds
468,Gold Coast,AU,2021-08-14 16:56:18,-28.0,153.4333,61.03,96,77,6.91,broken clouds
469,Labuhan,ID,2021-08-14 16:55:13,-6.8844,112.2051,77.85,81,56,7.2,broken clouds
470,Weligama,LK,2021-08-14 16:56:18,5.9667,80.4167,78.84,85,93,12.66,overcast clouds
471,Vysokogornyy,RU,2021-08-14 16:56:19,50.1167,139.15,52.12,86,55,1.54,broken clouds
472,Adrar,MR,2021-08-14 16:56:19,20.5022,-10.0711,106.34,13,6,14.47,clear sky
473,Cap-Aux-Meules,CA,2021-08-14 16:56:20,47.3821,-61.8597,80.65,78,1,9.22,clear sky
474,Alapur,IN,2021-08-14 16:56:20,27.9555,79.2269,86.29,62,92,9.6,overcast clouds
475,Ilulissat,GL,2021-08-14 16:54:55,69.2167,-51.1,45.81,93,100,5.66,overcast clouds
476,Cusco,PE,2021-08-14 16:56:21,-13.5183,-71.9781,62.83,29,40,2.3,scattered clouds
477,Momignies,BE,2021-08-14 16:56:21,50.0271,4.1652,75.4,69,2,3.4,clear sky
478,Shumskiy,RU,2021-08-14 16:56:21,54.8318,99.1328,59.09,96,58,4.74,broken clouds
479,Norman Wells,CA,2021-08-14 16:56:22,65.282,-126.8329,51.84,93,75,10.36,light rain
480,Sokolo,ML,2021-08-14 16:56:22,14.7328,-6.1219,74.62,77,89,14.14,overcast clouds
481,Ulaanbaatar,MN,2021-08-14 16:54:07,47.9077,106.8832,55.53,82,0,2.24,clear sky
482,Santa Lucia,ES,2021-08-14 16:56:23,27.9117,-15.5407,76.77,69,20,34.52,few clouds
483,Jatiroto,ID,2021-08-14 16:56:23,-7.8833,111.1167,72.64,92,33,2.53,scattered clouds
484,Kousseri,CM,2021-08-14 16:56:23,12.0769,15.0306,76.96,88,40,3.44,thunderstorm
485,Sola,VU,2021-08-14 16:56:24,-13.8833,167.55,77.11,81,87,27.49,overcast clouds
486,Shebalino,RU,2021-08-14 16:56:24,51.2917,85.6772,51.8,100,100,2.71,overcast clouds
487,Conceicao Do Araguaia,BR,2021-08-14 16:56:24,-8.2578,-49.2647,93.33,26,0,9.22,clear sky
488,Mezhdurechensk,RU,2021-08-14 16:56:04,53.6942,88.0603,56.55,98,100,0.74,overcast clouds
489,Inuvik,CA,2021-08-14 16:56:25,68.3499,-133.7218,49.21,81,20,4.61,few clouds
490,Oktyabrskoye,RU,2021-08-14 16:56:25,43.0645,44.7417,69.94,88,75,2.24,broken clouds
491,Poddorye,RU,2021-08-14 16:56:26,57.4695,31.1156,64.49,89,89,8.57,overcast clouds
492,Kalnibolotskaya,RU,2021-08-14 16:56:26,46.0058,40.4568,69.26,86,100,8.77,overcast clouds
493,Floro,NO,2021-08-14 16:56:26,61.5996,5.0328,60.76,72,20,9.22,few clouds
494,Falam,MM,2021-08-14 16:56:27,22.9167,93.6833,64.74,99,100,1.72,overcast clouds
495,Sheridan,US,2021-08-14 16:56:27,44.8333,-106.9173,89.31,32,4,1.01,clear sky
496,Buchanan,LR,2021-08-14 16:56:27,5.8808,-10.0467,84.16,67,92,8.88,overcast clouds
497,Kashi,CN,2021-08-14 16:56:28,39.4547,75.9797,72.61,43,20,2.24,few clouds
498,Te Anau,NZ,2021-08-14 16:56:28,-45.4167,167.7167,42.49,97,100,6.38,overcast clouds
499,San Patricio,US,2021-08-14 16:56:28,28.017,-97.5169,92.05,48,28,5.82,light rain
500,Kenai,US,2021-08-14 16:56:29,60.5544,-151.2583,54.03,94,100,1.95,light rain
501,Fecamp,FR,2021-08-14 16:56:29,49.7579,0.3746,82.45,62,0,5.37,clear sky
502,Valdivia,CL,2021-08-14 16:56:30,-39.8142,-73.2459,42.89,68,100,1.39,overcast clouds
503,Grindavik,IS,2021-08-14 16:56:30,63.8424,-22.4338,57.15,87,75,16.11,broken clouds
504,Mehamn,NO,2021-08-14 16:56:30,71.0357,27.8492,49.62,85,90,12.46,overcast clouds
505,Maragogi,BR,2021-08-14 16:56:31,-9.0122,-35.2225,77.9,75,57,10.33,broken clouds
506,Chokwe,MZ,2021-08-14 16:56:31,-24.5333,32.9833,64.63,63,100,10.13,overcast clouds
507,San Cristobal,VE,2021-08-14 16:56:32,7.7669,-72.225,78.98,80,99,4.79,overcast clouds
508,Tromso,NO,2021-08-14 16:54:41,69.6496,18.957,57.85,76,20,12.66,few clouds
509,Awjilah,LY,2021-08-14 16:56:32,29.1081,21.2869,95.95,21,0,10.42,clear sky
510,Carroll,US,2021-08-14 16:56:33,39.5501,-77.0164,88.92,65,75,4.0,broken clouds
511,Giyani,ZA,2021-08-14 16:56:33,-23.3025,30.7187,60.57,59,100,5.35,overcast clouds
512,Basco,PH,2021-08-14 16:56:34,20.4487,121.9702,84.31,69,2,4.16,clear sky
513,Katsuura,JP,2021-08-14 16:56:34,35.1333,140.3,69.91,92,100,21.09,light rain
514,Baykit,RU,2021-08-14 16:56:34,61.67,96.37,56.52,95,100,3.51,overcast clouds
515,Timaru,NZ,2021-08-14 16:56:35,-44.4,171.25,38.95,63,9,6.82,clear sky
516,Ebejico,CO,2021-08-14 16:56:35,6.326,-75.7683,72.75,80,100,0.94,moderate rain
517,Nsoko,SZ,2021-08-14 16:56:35,-27.0333,31.95,56.48,86,94,2.95,light rain
518,Ayame,CI,2021-08-14 16:56:36,5.6083,-3.1563,82.72,54,70,9.15,broken clouds
519,Lodwar,KE,2021-08-14 16:56:36,3.1191,35.5973,91.18,30,8,8.32,clear sky
520,Namatanai,PG,2021-08-14 16:55:59,-3.6667,152.4333,78.66,83,15,7.61,light rain
521,Aksarka,RU,2021-08-14 16:56:37,66.5606,67.7975,66.2,73,72,12.35,broken clouds
522,Sao Sebastiao,BR,2021-08-14 16:54:54,-23.76,-45.4097,66.67,93,97,8.21,overcast clouds
523,Nouakchott,MR,2021-08-14 16:54:16,18.0858,-15.9785,89.53,77,15,15.32,few clouds
524,Kwinana,AU,2021-08-14 16:56:37,-32.25,115.7667,54.23,83,2,7.45,clear sky
525,Pionerskiy,RU,2021-08-14 16:56:38,54.9508,20.2275,66.04,68,70,11.3,broken clouds
526,Parabel,RU,2021-08-14 16:56:38,58.6978,81.4825,55.26,94,77,5.57,broken clouds
527,Freeport,US,2021-08-14 16:52:19,40.6576,-73.5832,93.15,58,1,5.01,clear sky
528,Rudnogorsk,RU,2021-08-14 16:56:39,57.2639,103.7519,64.27,77,100,3.42,light rain
529,Eyl,SO,2021-08-14 16:56:39,7.9803,49.8164,78.15,79,60,26.31,broken clouds
530,Puerto Vallarta,MX,2021-08-14 16:56:39,20.6204,-105.2307,84.9,82,34,1.99,scattered clouds
531,Ushtobe,KZ,2021-08-14 16:56:40,45.2514,77.9838,63.5,58,59,9.46,broken clouds
532,Mapiripan,CO,2021-08-14 16:56:40,2.8892,-72.1256,82.33,70,94,4.76,moderate rain
533,Lagoa,PT,2021-08-14 16:56:41,39.05,-27.9833,74.44,79,32,5.91,scattered clouds
534,Barranca,PE,2021-08-14 16:56:41,-10.75,-77.7667,66.29,70,27,10.13,scattered clouds
535,Havelock,US,2021-08-14 16:56:41,34.8791,-76.9013,92.05,72,82,4.0,broken clouds
536,Tucumcari,US,2021-08-14 16:56:42,35.1717,-103.725,78.94,56,35,2.55,scattered clouds
537,Sikasso,ML,2021-08-14 16:56:42,10.9167,-7.0,78.08,87,93,5.08,moderate rain
538,Kavaratti,IN,2021-08-14 16:56:42,10.5669,72.642,81.3,78,92,18.41,overcast clouds
539,Danshui,CN,2021-08-14 16:56:43,22.7984,114.4672,83.01,90,100,1.57,overcast clouds
540,Pag,HR,2021-08-14 16:56:43,44.445,15.0575,95.58,47,1,10.8,clear sky
541,Candido Mendes,BR,2021-08-14 16:56:43,-1.4467,-45.7167,84.07,68,29,7.0,scattered clouds
542,Luba,GQ,2021-08-14 16:56:44,3.4568,8.5547,78.8,81,52,7.31,broken clouds
543,Shimoda,JP,2021-08-14 16:56:44,34.6667,138.95,79.63,93,100,19.91,overcast clouds
544,Atambua,ID,2021-08-14 16:56:44,-9.1061,124.8925,69.44,86,8,6.06,clear sky
545,Vila Velha,BR,2021-08-14 16:53:28,-20.3297,-40.2925,80.55,61,20,12.66,few clouds
546,Adre,TD,2021-08-14 16:56:45,13.4667,22.2,78.75,65,76,2.24,broken clouds
547,Hutchinson,US,2021-08-14 16:52:45,38.0608,-97.9298,83.32,64,75,1.99,broken clouds
548,Moen,NO,2021-08-14 16:56:45,69.1304,18.6123,57.92,67,20,5.75,few clouds
549,Quesnel,CA,2021-08-14 16:56:46,52.9999,-122.5029,63.1,72,1,6.91,clear sky
550,Lucapa,AO,2021-08-14 16:56:46,-8.4192,20.7447,80.29,36,91,3.53,overcast clouds
551,Kapoeta,SS,2021-08-14 16:56:47,4.7717,33.5903,78.04,67,85,6.51,overcast clouds
552,Annau,TM,2021-08-14 16:55:05,37.8876,58.516,89.1,14,0,6.91,clear sky
553,Birobidzhan,RU,2021-08-14 16:56:47,48.8,132.95,58.73,84,2,3.78,clear sky
554,Temiscaming,CA,2021-08-14 16:56:47,46.7212,-79.0971,66.47,63,23,4.61,few clouds
555,Hamilton,US,2021-08-14 16:54:42,39.1834,-84.5333,82.78,64,100,1.99,overcast clouds
556,Pirojpur,BD,2021-08-14 16:56:48,22.5667,89.9833,81.48,89,100,7.36,overcast clouds
557,Raudeberg,NO,2021-08-14 16:56:48,61.9875,5.1352,59.67,87,100,1.01,overcast clouds
558,Mnogovershinnyy,RU,2021-08-14 16:56:49,53.9353,139.9242,58.69,75,21,4.63,few clouds
559,Laguna,US,2021-08-14 16:56:49,38.421,-121.4238,94.84,50,1,3.44,haze
560,Puerto Maldonado,PE,2021-08-14 16:56:49,-12.6,-69.1833,82.8,47,0,4.61,clear sky
561,Nyahururu,KE,2021-08-14 16:56:50,0.0421,36.3673,54.21,89,89,4.09,light rain
562,The Valley,AI,2021-08-14 16:56:50,18.217,-63.0578,87.66,74,20,19.57,few clouds
563,Uglegorsk,RU,2021-08-14 16:56:50,49.0833,142.0333,53.22,81,21,5.86,few clouds
564,Wanning,CN,2021-08-14 16:56:51,18.8003,110.3967,81.81,88,100,9.95,overcast clouds
565,Jackson,US,2021-08-14 16:56:51,42.4165,-122.8345,78.04,37,55,1.95,broken clouds
566,La Ronge,CA,2021-08-14 16:56:51,55.1001,-105.2842,70.05,64,75,1.14,broken clouds
567,Ostrovnoy,RU,2021-08-14 16:54:50,68.0531,39.5131,48.79,86,69,8.95,broken clouds
568,Angoram,PG,2021-08-14 16:56:52,-4.0625,144.0661,72.84,99,96,2.04,overcast clouds
569,Mukhen,RU,2021-08-14 16:56:52,48.1,136.1,59.61,81,10,1.99,clear sky
570,Namangan,UZ,2021-08-14 16:56:53,40.9983,71.6726,75.65,31,5,4.61,clear sky
571,Ruteng,ID,2021-08-14 16:56:53,-8.6136,120.4721,59.86,94,16,2.17,few clouds
572,Springfield,US,2021-08-14 16:55:47,37.2153,-93.2982,82.08,70,78,5.99,broken clouds
573,Nichinan,JP,2021-08-14 16:56:54,31.6,131.3667,79.05,91,100,13.56,moderate rain
574,Muros,ES,2021-08-14 16:56:54,42.7762,-9.0603,80.83,50,0,15.43,clear sky
575,Jhalida,IN,2021-08-14 16:56:54,23.3667,85.9667,79.34,65,100,2.21,overcast clouds
576,Okha,RU,2021-08-14 16:56:55,53.5739,142.9478,54.43,83,18,8.19,few clouds
577,Ous,RU,2021-08-14 16:56:55,60.9058,61.5186,64.51,62,45,11.1,scattered clouds
578,Satana,IN,2021-08-14 16:56:55,20.5833,74.2,74.08,80,74,9.71,broken clouds
579,Tambo,PE,2021-08-14 16:56:56,-14.8,-73.9167,46.78,41,67,9.71,broken clouds
580,Orlik,RU,2021-08-14 16:56:56,52.5178,99.825,55.92,78,53,0.96,broken clouds
581,Jaisalmer,IN,2021-08-14 16:56:57,26.9147,70.9181,90.43,45,96,25.77,overcast clouds
582,Marstal,DK,2021-08-14 16:56:57,54.8562,10.5173,66.34,73,93,22.77,overcast clouds
583,Bristol,US,2021-08-14 16:56:57,41.8334,-71.1662,91.4,83,52,7.58,broken clouds
584,Cururupu,BR,2021-08-14 16:56:58,-1.8283,-44.8683,82.8,74,36,6.2,scattered clouds
